[
    {
        "id": "munkebu_hut",
        "name": "Munkebu Hut",
        "lat": 67.927478,
        "lng": 13.003784,
        "zone": "Moskenes\u00f8ya",
        "comment": "Nombreux emplacements autour du lac",
        "pinType": "assets/pin5.png",
        "coverImage": "assets/pictures/Camp1 - guillaume therin.jpg",
        "stars": "5",
        "isolation": "2h30",
        "wood": 0,
        "water": 1
    },
    {
        "id": "butte",
        "name": "Butte",
        "lat": 67.933875,
        "lng": 12.979793,
        "zone": "Moskenes\u00f8ya",
        "comment": "Tr\u00e8s belle vue",
        "pinType": "assets/pin5.png",
        "coverImage": "assets/pictures/Camp2 - guillaume therin.jpg",
        "stars": "5",
        "isolation": "3h30",
        "wood": 0,
        "water": 1
    },
    {
        "id": "bunes_beach",
        "name": "Bunes beach",
        "lat": 67.977184,
        "lng": 12.972403,
        "zone": "Moskenes\u00f8ya",
        "comment": "Nombreux emplacements mais beaucoup de monde",
        "pinType": "assets/pin4.png",
        "coverImage": "assets/pictures/Camp3 - guillaume therin.jpg",
        "stars": "4",
        "isolation": "1h + ferry",
        "wood": 0,
        "water": 1
    },
    {
        "id": "helvete",
        "name": "Helvete",
        "lat": 67.937034,
        "lng": 13.039256,
        "zone": "Moskenes\u00f8ya",
        "comment": "Vue exceptionnelle",
        "pinType": "assets/pin5.png",
        "coverImage": "assets/pictures/Camp4 - guillaume therin.jpg",
        "stars": "5",
        "isolation": "3h30",
        "wood": 0,
        "water": 0
    },
    {
        "id": "kvavika_beach",
        "name": "Kvavika beach",
        "lat": 68.077758,
        "lng": 13.099797,
        "zone": "Moskenes\u00f8ya",
        "comment": "Nombreux emplacements mais beaucoup de monde",
        "pinType": "assets/pin4.png",
        "coverImage": "assets/pictures/Camp5 - guillaume therin.jpg",
        "stars": "4",
        "isolation": "0h45 minutes",
        "wood": 0,
        "water": 1
    },
    {
        "id": "horseid_beach",
        "name": "Horseid beach",
        "lat": 68.019606,
        "lng": 12.995028,
        "zone": "Moskenes\u00f8ya",
        "comment": "Tr\u00e8s grande \u00e9tendue mais peu de monde",
        "pinType": "assets/pin4.png",
        "coverImage": "assets/white.jpg",
        "stars": "4",
        "isolation": "1h30 + ferry",
        "wood": 0,
        "water": 1
    },
    {
        "id": "vomma",
        "name": "Vomma",
        "lat": 68.007968,
        "lng": 13.016878,
        "zone": "Moskenes\u00f8ya",
        "comment": "",
        "pinType": "assets/pin4.png",
        "coverImage": "assets/pictures/Camp7 - guillaume therin.jpg",
        "stars": "4",
        "isolation": "3h30",
        "wood": 0,
        "water": 1
    },
    {
        "id": "fageraskaret",
        "name": "Fager\u00e5skaret",
        "lat": 68.011894,
        "lng": 13.037822,
        "zone": "Moskenes\u00f8ya",
        "comment": "Tr\u00e8s bel emplacement au col de Fager\u00e5skaret",
        "pinType": "assets/pin4.png",
        "coverImage": "assets/white.jpg",
        "stars": "4",
        "isolation": "2h30",
        "wood": 0,
        "water": 1
    },
    {
        "id": "rive_nord_fageravatnet",
        "name": "Rive Nord Fager\u00e5vatnet",
        "lat": 68.023917,
        "lng": 13.042052,
        "zone": "Moskenes\u00f8ya",
        "comment": "Beaucoup de bois mort pour faire un feu",
        "pinType": "assets/pin5.png",
        "coverImage": "assets/pictures/Camp9 - guillaume therin.jpg",
        "stars": "5",
        "isolation": "1h30",
        "wood": 1,
        "water": 1
    },
    {
        "id": "storsandnes",
        "name": "Storsandnes",
        "lat": 68.155305,
        "lng": 13.419152,
        "zone": "Flakstad\u00f8ya",
        "comment": "Tr\u00e8s joli endroit, assez sauvage",
        "pinType": "assets/pin5.png",
        "coverImage": "assets/pictures/Camp10 - guillaume therin.jpg",
        "stars": "5",
        "isolation": "",
        "wood": 0,
        "water": 1
    },
    {
        "id": "haukland_beach",
        "name": "Haukland beach",
        "lat": 68.199336,
        "lng": 13.527838,
        "zone": "Vestv\u00e5g\u00f8ya",
        "comment": "Magnifique mais dor\u00e9navant payant",
        "pinType": "assets/pin3.png",
        "coverImage": "assets/pictures/Camp11 - guillaume therin.jpg",
        "stars": "3",
        "isolation": "",
        "wood": 0,
        "water": 1
    },
    {
        "id": "rorvika",
        "name": "Rorvika",
        "lat": 68.203779,
        "lng": 14.235195,
        "zone": "Austv\u00e5g\u00f8ya",
        "comment": "Tr\u00e8s bel endroit semi-sauvage",
        "pinType": "assets/pin4.png",
        "coverImage": "assets/white.jpg",
        "stars": "4",
        "isolation": "",
        "wood": 0,
        "water": 1
    },
    {
        "id": "ersfjorden_beach",
        "name": "Ersfjorden beach",
        "lat": 69.479559,
        "lng": 17.398392,
        "zone": "Senja",
        "comment": "Tr\u00e8s bel endroit, beaucoup de place mais beaucoup de monde",
        "pinType": "assets/pin4.png",
        "coverImage": "assets/white.jpg",
        "stars": "4",
        "isolation": "",
        "wood": 0,
        "water": 1
    }
]